[{"number":"95066","id":"95066","company_name":"Slikparadiset","name":"Slikparadiset","address":"Kongensgade 53","address2":"Pakkeshop: 95066","zipcode":"5000","city":"Odense C","country":"DK","distance":null,"longitude":10.380959510803,"latitude":55.397438049316,"agent":"gls","carrier_code":"gls","routing_code":null,"opening_hours":["Monday: 10:30-21:00","Tuesday: 10:30-21:00","Wednesday: 10:30-21:00","Thursday: 10:30-21:00","Friday: 10:30-22:00","Saturday: 10:30-22:00"],"in_delivery":true,"out_delivery":true},{"number":"95344","id":"95344","company_name":"SuperBrugsen Rødegårdsvej","name":"SuperBrugsen Rødegårdsvej","address":"Rødegårdsvej 84-90","address2":"Pakkeshop: 95344","zipcode":"5000","city":"Odense C","country":"DK","distance":null,"longitude":10.40768134194891,"latitude":55.39194905666621,"agent":"gls","carrier_code":"gls","routing_code":null,"opening_hours":["Monday: 07:00-21:00","Tuesday: 07:00-21:00","Wednesday: 07:00-21:00","Thursday: 07:00-21:00","Friday: 07:00-21:00","Saturday: 07:00-21:00","Sunday: 07:00-21:00"],"in_delivery":true,"out_delivery":true},{"number":"95390","id":"95390","company_name":"365discount Albanigade","name":"365discount Albanigade","address":"Albanigade 42","address2":"Pakkeshop: 95390","zipcode":"5000","city":"Odense C","country":"DK","distance":null,"longitude":10.39577756067153,"latitude":55.39343829651928,"agent":"gls","carrier_code":"gls","routing_code":null,"opening_hours":["Monday: 07:00-22:00","Tuesday: 07:00-22:00","Wednesday: 07:00-22:00","Thursday: 07:00-22:00","Friday: 07:00-22:00","Saturday: 07:00-22:00","Sunday: 07:00-22:00"],"in_delivery":true,"out_delivery":true},{"number":"95892","id":"95892","company_name":"7-Eleven Vestergade","name":"7-Eleven Vestergade","address":"Vestergade 89","address2":"Pakkeshop: 95892","zipcode":"5000","city":"Odense C","country":"DK","distance":null,"longitude":10.380655288696,"latitude":55.394241333008,"agent":"gls","carrier_code":"gls","routing_code":null,"opening_hours":["Monday: 07:00-23:00","Tuesday: 07:00-23:00","Wednesday: 07:00-23:00","Thursday: 07:00-23:00","Friday: 07:00-23:00","Saturday: 07:00-23:00","Sunday: 07:00-23:00"],"in_delivery":true,"out_delivery":true},{"number":"96089","id":"96089","company_name":"City Shoppen","name":"City Shoppen","address":"Nørregade 50","address2":"Pakkeshop: 96089","zipcode":"5000","city":"Odense C","country":"DK","distance":null,"longitude":10.388482093811,"latitude":55.399913787842,"agent":"gls","carrier_code":"gls","routing_code":null,"opening_hours":["Monday: 10:00-19:00","Tuesday: 10:00-19:00","Wednesday: 10:00-19:00","Thursday: 10:00-19:00","Friday: 10:00-20:00","Saturday: 10:00-20:00","Sunday: 10:00-16:00"],"in_delivery":true,"out_delivery":true},{"number":"97077","id":"97077","company_name":"Silvan Odense C","name":"Silvan Odense C","address":"Roersvej 33","address2":"Pakkeshop: 97077","zipcode":"5000","city":"Odense C","country":"DK","distance":null,"longitude":10.36860370636,"latitude":55.393039703369,"agent":"gls","carrier_code":"gls","routing_code":null,"opening_hours":["Monday: 08:00-19:00","Tuesday: 08:00-19:00","Wednesday: 08:00-19:00","Thursday: 08:00-19:00","Friday: 08:00-19:00","Saturday: 09:00-18:00","Sunday: 09:00-18:00"],"in_delivery":true,"out_delivery":true},{"number":"97229","id":"97229","company_name":"OK Plus Havnegade","name":"OK Plus Havnegade","address":"Havnegade 1","address2":"Pakkeshop: 97229","zipcode":"5000","city":"Odense C","country":"DK","distance":null,"longitude":10.385327339172,"latitude":55.406574249268,"agent":"gls","carrier_code":"gls","routing_code":null,"opening_hours":["Monday: 08:00-22:00","Tuesday: 08:00-22:00","Wednesday: 08:00-22:00","Thursday: 08:00-22:00","Friday: 08:00-22:00","Saturday: 08:00-22:00","Sunday: 08:00-22:00"],"in_delivery":true,"out_delivery":true},{"number":"97230","id":"97230","company_name":"OK Plus Sandhusvej","name":"OK Plus Sandhusvej","address":"Sandhusvej 19","address2":"Pakkeshop: 97230","zipcode":"5000","city":"Odense C","country":"DK","distance":null,"longitude":10.404634475708,"latitude":55.4176902771,"agent":"gls","carrier_code":"gls","routing_code":null,"opening_hours":["Monday: 06:00-21:00","Tuesday: 06:00-21:00","Wednesday: 06:00-21:00","Thursday: 06:00-21:00","Friday: 06:00-21:00","Saturday: 07:00-21:00","Sunday: 07:00-21:00"],"in_delivery":true,"out_delivery":true},{"number":"97842","id":"97842","company_name":"Superbrugsen City","name":"Superbrugsen City","address":"Vestergade 76","address2":"Pakkeshop: 97842","zipcode":"5000","city":"Odense C","country":"DK","distance":null,"longitude":10.3827036,"latitude":55.3944554,"agent":"gls","carrier_code":"gls","routing_code":null,"opening_hours":["Monday: 07:00-23:00","Tuesday: 07:00-23:00","Wednesday: 07:00-23:00","Thursday: 07:00-23:00","Friday: 07:00-23:00","Saturday: 07:00-23:00","Sunday: 07:00-23:00"],"in_delivery":true,"out_delivery":true},{"number":"99333","id":"99333","company_name":"Kvickly Skibhusvej","name":"Kvickly Skibhusvej","address":"Skibhusvej 70A","address2":"Pakkeshop: 99333","zipcode":"5000","city":"Odense C","country":"DK","distance":null,"longitude":10.39297580719,"latitude":55.40705871582,"agent":"gls","carrier_code":"gls","routing_code":null,"opening_hours":["Monday: 08:00-20:00","Tuesday: 08:00-20:00","Wednesday: 08:00-20:00","Thursday: 08:00-20:00","Friday: 08:00-20:00","Saturday: 08:00-20:00","Sunday: 08:00-20:00"],"in_delivery":true,"out_delivery":true},{"number":"99442","id":"99442","company_name":"7-Eleven Næsbyvej","name":"7-Eleven Næsbyvej","address":"Næsbyvej 51","address2":"Pakkeshop: 99442","zipcode":"5000","city":"Odense C","country":"DK","distance":null,"longitude":10.369086265564,"latitude":55.411003112793,"agent":"gls","carrier_code":"gls","routing_code":null,"opening_hours":["Monday: 00:00-24:00","Tuesday: 00:00-24:00","Wednesday: 00:00-24:00","Thursday: 00:00-24:00","Friday: 00:00-24:00","Saturday: 00:00-24:00","Sunday: 00:00-24:00"],"in_delivery":true,"out_delivery":true}]